[{
  "_id": {
    "$oid": "5f15d885de143f9593a7c"
  },
  "image": "https://ad962edbae8ba7b03b7f-d10007df79b5b7a4e475a291e50a08cf.ssl.cf3.rackcdn.com/creer-un-restaurant/creer-un-restaurant.jpg",

  "rating": 1,

  "name": "Le Privé Restaurant",
  "description": "41 Bis Av. des Forces Armées Royales, El Jadida",
  "category": {
    "$oid": "1r"

  },

  "location": {

    "latitude":   33.2482935869239,
    "longitude":-8.501448404294933
  },
  "city": {
    "$oid": "elj1"
  },

  "__v": 0
},{
  "_id": {
    "$oid": "5f15d8852a025143f9593a7c"
  },
  "image": "https://lh5.googleusercontent.com/p/AF1QipPJFAPaadeAPaxERBIhsi56GgvmaQa7L5b_PRcU=w425-h240-k-no",

  "rating": 1,

  "name": "School Academy",
  "description": "Av Khalil Jabran, El Jadida",
  "category": {
    "$oid": "5s"

  },

  "location": {
    "latitude":   33.24843884382991,
    "longitude":-8.501405765434457
  },
  "city": {
    "$oid": "elj1"
  },

  "__v": 0
},{
  "_id": {
    "$oid": "5f15d92ee520d44421ed8e9b"
  },
  "image": "https://i-df.unimedias.fr/2021/02/15/istock-526246287.jpg?auto=format%2Ccompress&crop=faces&cs=tinysrgb&fit=crop&h=507&w=806",

  "rating": 5,

  "name": "Cafe Restaurant Borj Mazaga",
  "description": "Avenue Jamia Arabia Jamiâa Arabia, El Jadida",
  "category": {
    "$oid": "1r"

  },
  "location": {
    "latitude": 33.24799782641356,
    "longitude":-8.532367544873654
  },
  "city": {
    "$oid": "elj1"
  },
  "__v": 0
},{
  "_id": {
    "$oid": "5f15d964e520d44421ed8e9c"
  },
  "image": "https://i0.wp.com/www.financialafrik.com/wp-content/uploads/2019/05/Onomo.jpg?fit=600%2C400&ssl=1",
  "rating":4,
  "name": "ONOMO Hotel ",
  "description": "Angle de rue boulevard Massira &، Rue Normandie",
  "category": {
    "$oid": "3h"
  },
  "location": {
    "latitude":  33.586585858861085,
    "longitude":-7.639031529422217
  },
  "city": {
    "$oid": "cas2"
  },
  "__v": 0
},{
  "_id": {
    "$oid": "5f15d9b3e520d44421ed8e9d"
  },
  "image": "https://thumbnails.trvl-media.com/53RHWgxeE0kZkyUEZGaGTywfVv8=/773x530/smart/filters:quality(60)/images.trvl-media.com/hotels/5000000/4400000/4397200/4397112/d4dc1bd7_z.jpg",
  "rating": 3,
  "name": "Kenzi Solazur",
  "description": "Blvd. Mohamed VI, Tanger",
  "category": {
    "$oid": "3h"
  },
  "location": {
    "latitude": 35.77704678757632,
    "longitude": -5.79788910238411
  },
  "city": {
    "$oid": "tan6"
  },
  "__v": 0
},{
  "_id": {
    "$oid": "5f15da13e520d44421ed8e9e"
  },
   "image": "https://media-cdn.tripadvisor.com/media/photo-s/07/4b/49/44/blanco-riad-hotel-restaurant.jpg",
  "rating": 5,
  "name": "Blanco Riad",
  "description": " Rue Zaouia Kadiria, Tétouan 93000",
  "category": {
    "$oid": "3h"
  },
  "location": {
    "latitude": 35.57070520209396,
    "longitude":-5.370063073553435
  },

  "city": {
    "$oid": "tet4"
  },
  "__v": 0
},{
  "_id": {
    "$oid": "5f15da13e520d44421zd8e9e"
  },
  "image": "https://lh5.googleusercontent.com/p/AF1QipOxA5ZgyWr9-krmaqzC_cxPkAYsmJQrYsYV9Eh5=w408-h306-k-no",
  "rating": 5,
  "name": "The British Academy School",
  "description": " Av. Agdal, Marrakech",
  "category": {
    "$oid": "5s"
  },
  "location": {
    "latitude":  31.654892105955543,
    "longitude":-8.051248726842475
  },

  "city": {
    "$oid": "mar3"
  },
  "__v": 0
},{
  "_id": {
    "$oid": "5f15da13e554d44421ed8e9e"
  },
  "image": "https://lh5.googleusercontent.com/p/AF1QipMD8tTpXkxS_9Q2KwmkYyUOqVds55Skmm4RHq2p=w408-h306-k-no",
  "rating": 5,
  "name": "Les Jardins Du Lotus",
  "description": " Dar El Bacha, 9 Derb Sidi Ali Ben Hamdouch",
  "category": {
    "$oid": "1r"
  },
  "location": {
    "latitude":  31.633188501863163,
    "longitude":-7.991696723656494
  },

  "city": {
    "$oid": "mar3"
  },
  "__v": 0
},{
  "_id": {
    "$oid": "5f15da13e3o04421ed8e9e"
  },
  "image": "https://lh5.googleusercontent.com/p/AF1QipNs_eF5b8C9PUJLi2GJyk0ATa5dfCDlwgVDDUBc=w156-h96-p-k-no",
  "rating": 5,
  "name": "Riad Dar Sara",
  "description": " 120 Derb Arset Awzel, Bab Doukkala",
  "category": {
    "$oid": "3h"
  },
  "location": {
    "latitude":  31.630648998207302,
    "longitude": -7.994207271224859
  },

  "city": {
    "$oid": "mar3"
  },
  "__v": 0
}]
